output/access_report.txt

STK Access Analysis Report
==================================================
Satellite: Sat1
Facility: Boulder
Total Access Intervals: 6
--------------------------------------------------
Start Time			Stop Time			Duration (s)			Duration (m)
--------------------------------------------------
2025-06-01 09:29:10.251000	2025-06-01 09:36:08.149000	417.898	6.964966666666667
2025-06-01 19:40:01.053000	2025-06-01 19:44:26.666000	265.613	4.4268833333333335
2025-06-01 21:25:35.632000	2025-06-01 21:28:57.441000	201.809	3.3634833333333334
2025-06-02 08:32:52.468000	2025-06-02 08:37:48.217000	295.749	4.929150000000001
2025-06-02 10:18:44.063000	2025-06-02 10:21:43.640000	179.577	2.99295
2025-06-02 20:26:22.961000	2025-06-02 20:33:22.611000	419.65	6.994166666666667
